{
    "nodes": [
        {
            "id": 0, 
            "iata": "AGO", 
            "label": "Magnolia Municipal", 
            "city": "Magnolia", 
            "state": "AR", 
            "country": "USA", 
            "lat": "33.22802111", 
            "long": "-93.21696861"
        }, 
        {
            "id": 1, 
            "iata": "AGN", 
            "label": "Angoon SPB", 
            "city": "Angoon", 
            "state": "AK", 
            "country": "USA", 
            "lat": "57.50355528", 
            "long": "-134.5850939"
        }, 
        {
            "id": 2, 
            "iata": "RTN", 
            "label": "Raton Municipal/Crews ", 
            "city": "Raton", 
            "state": "NM", 
            "country": "USA", 
            "lat": "36.74152778", 
            "long": "-104.5021833"
        }, 
        {
            "id": 3, 
            "iata": "L72", 
            "label": "Trona", 
            "city": "Trona", 
            "state": "CA", 
            "country": "USA", 
            "lat": "35.81245333", 
            "long": "-117.3272783"
        }, 
        {
            "id": 4, 
            "iata": "29G", 
            "label": "Portage County", 
            "city": "Ravenna", 
            "state": "OH", 
            "country": "USA", 
            "lat": "41.210195", 
            "long": "-81.25163083"
        }, 
        {
            "id": 5, 
            "iata": "29D", 
            "label": "Grove City", 
            "city": "Grove City", 
            "state": "PA", 
            "country": "USA", 
            "lat": "41.14597611", 
            "long": "-80.16592194"
        }, 
        {
            "id": 6, 
            "iata": "L71", 
            "label": "California City Municipal", 
            "city": "California City", 
            "state": "CA", 
            "country": "USA", 
            "lat": "35.15125306", 
            "long": "-118.0166667"
        }, 
        {
            "id": 7, 
            "iata": "AGC", 
            "label": "Allegheny Cty", 
            "city": "Pittsburgh", 
            "state": "PA", 
            "country": "USA", 
            "lat": "40.35440139", 
            "long": "-79.93016889"
        }, 
        {
            "id": 8, 
            "iata": "MRI", 
            "label": "Merrill ", 
            "city": "Anchorage", 
            "state": "AK", 
            "country": "USA", 
            "lat": "61.21437861", 
            "long": "-149.8461614"
        }, 
        {
            "id": 9, 
            "iata": "L75", 
            "label": "Southland ", 
            "city": "Sulphur", 
            "state": "LA", 
            "country": "USA", 
            "lat": "30.13138889", 
            "long": "-93.37611111"
        }, 
        {
            "id": 10, 
            "iata": "6B0", 
            "label": "Middlebury State", 
            "city": "Middlebury", 
            "state": "VT", 
            "country": "USA", 
            "lat": "43.98478278", 
            "long": "-73.09594889"
        }, 
        {
            "id": 11, 
            "iata": "6B6", 
            "label": "Minute Man Airfield", 
            "city": "Stow", 
            "state": "MA", 
            "country": "USA", 
            "lat": "42.46045361", 
            "long": "-71.51791444"
        }, 
        {
            "id": 12, 
            "iata": "6B4", 
            "label": "Frankfort-Highland", 
            "city": "Utica/Frankfort", 
            "state": "NY", 
            "country": "USA", 
            "lat": "43.02090306", 
            "long": "-75.17043861"
        }, 
        {
            "id": 13, 
            "iata": "6B9", 
            "label": "Skaneateles Aero Drome", 
            "city": "Skaneateles", 
            "state": "NY", 
            "country": "USA", 
            "lat": "42.91395583", 
            "long": "-76.44076889"
        }, 
        {
            "id": 14, 
            "iata": "6B8", 
            "label": "Caledonia County State", 
            "city": "Lyndonville", 
            "state": "VT", 
            "country": "USA", 
            "lat": "44.56911417", 
            "long": "-72.01797889"
        }, 
        {
            "id": 15, 
            "iata": "AGS", 
            "label": "Bush ", 
            "city": "Augusta", 
            "state": "GA", 
            "country": "USA", 
            "lat": "33.369955", 
            "long": "-81.96449611"
        }, 
        {
            "id": 16, 
            "iata": "29S", 
            "label": "Gardiner", 
            "city": "Gardiner", 
            "state": "MT", 
            "country": "USA", 
            "lat": "45.04993556", 
            "long": "-110.7466008"
        }, 
        {
            "id": 17, 
            "iata": "BWP", 
            "label": "Harry Stern", 
            "city": "Wahpeton", 
            "state": "ND", 
            "country": "USA", 
            "lat": "46.24640083", 
            "long": "-96.6056825"
        }, 
        {
            "id": 18, 
            "iata": "O48", 
            "label": "Little River", 
            "city": "Little River", 
            "state": "CA", 
            "country": "USA", 
            "lat": "39.26203778", 
            "long": "-123.7537347"
        }, 
        {
            "id": 19, 
            "iata": "3S9", 
            "label": "Condon State-Pauling ", 
            "city": "Condon", 
            "state": "OR", 
            "country": "USA", 
            "lat": "45.24651889", 
            "long": "-120.1664233"
        }, 
        {
            "id": 20, 
            "iata": "3S8", 
            "label": "Grants Pass", 
            "city": "Grants Pass", 
            "state": "OR", 
            "country": "USA", 
            "lat": "42.51011722", 
            "long": "-123.3879894"
        }, 
        {
            "id": 21, 
            "iata": "3S4", 
            "label": "Illinois Valley", 
            "city": "Illinois Valley (Cave Junction)", 
            "state": "OR", 
            "country": "USA", 
            "lat": "42.10372417", 
            "long": "-123.6822911"
        }, 
        {
            "id": 22, 
            "iata": "SPS", 
            "label": "Sheppard AFB/Wichita Falls Municipal", 
            "city": "Wichita Falls", 
            "state": "TX", 
            "country": "USA", 
            "lat": "33.98879611", 
            "long": "-98.49189333"
        }, 
        {
            "id": 23, 
            "iata": "SPW", 
            "label": "Spencer Municipal", 
            "city": "Spencer", 
            "state": "IA", 
            "country": "USA", 
            "lat": "43.16552778", 
            "long": "-95.20280556"
        }, 
        {
            "id": 24, 
            "iata": "SPH", 
            "label": "Springhill", 
            "city": "Springhill", 
            "state": "LA", 
            "country": "USA", 
            "lat": "32.98316472", 
            "long": "-93.41081028"
        }, 
        {
            "id": 25, 
            "iata": "SPI", 
            "label": "Capital", 
            "city": "Springfield", 
            "state": "IL", 
            "country": "USA", 
            "lat": "39.84395194", 
            "long": "-89.67761861"
        }, 
        {
            "id": 26, 
            "iata": "BWC", 
            "label": "Brawley Municipal", 
            "city": "Brawley", 
            "state": "CA", 
            "country": "USA", 
            "lat": "32.9931", 
            "long": "-115.5169325"
        }, 
        {
            "id": 27, 
            "iata": "BWD", 
            "label": "Brownwood Municipal", 
            "city": "Brownwood", 
            "state": "TX", 
            "country": "USA", 
            "lat": "31.79362222", 
            "long": "-98.95649528"
        }, 
        {
            "id": 28, 
            "iata": "SPN", 
            "label": "Tinian International Airport", 
            "city": "NA", 
            "state": "NA", 
            "country": "N Mariana Islands", 
            "lat": "14.996111", 
            "long": "145.621384"
        }, 
        {
            "id": 29, 
            "iata": "BWG", 
            "label": "Bowling Green-Warren County ", 
            "city": "Bowling Green", 
            "state": "KY", 
            "country": "USA", 
            "lat": "36.96451667", 
            "long": "-86.41967917"
        }, 
        {
            "id": 30, 
            "iata": "BWI", 
            "label": "Baltimore-Washington International", 
            "city": "Baltimore", 
            "state": "MD", 
            "country": "USA", 
            "lat": "39.17540167", 
            "long": "-76.66819833"
        }, 
        {
            "id": 31, 
            "iata": "SPB", 
            "label": "Scappoose Industrial Airpark", 
            "city": "Scappoose", 
            "state": "OR", 
            "country": "USA", 
            "lat": "45.77250444", 
            "long": "-122.8623611"
        }, 
        {
            "id": 32, 
            "iata": "L70", 
            "label": "Agua Dulce Airpark", 
            "city": "Agua Dulce", 
            "state": "CA", 
            "country": "USA", 
            "lat": "34.50415889", 
            "long": "-118.3128561"
        }, 
        {
            "id": 33, 
            "iata": "KYU", 
            "label": "Koyukuk", 
            "city": "Koyukuk", 
            "state": "AK", 
            "country": "USA", 
            "lat": "64.87714278", 
            "long": "-157.7158358"
        }, 
        {
            "id": 34, 
            "iata": "SPG", 
            "label": "Albert Whitted Municipal ", 
            "city": "St. Petersburg", 
            "state": "FL", 
            "country": "USA", 
            "lat": "27.76511111", 
            "long": "-82.62697222"
        }, 
        {
            "id": 35, 
            "iata": "RIL", 
            "label": "Garfield County Regional", 
            "city": "Rifle", 
            "state": "CO", 
            "country": "USA", 
            "lat": "39.526315", 
            "long": "-107.7269403"
        }, 
        {
            "id": 36, 
            "iata": "34A", 
            "label": "Laurens County", 
            "city": "Laurens", 
            "state": "SC", 
            "country": "USA", 
            "lat": "34.50705556", 
            "long": "-81.94719444"
        }, 
        {
            "id": 37, 
            "iata": "K46", 
            "label": "Blair Municipal", 
            "city": "Blair", 
            "state": "NE", 
            "country": "USA", 
            "lat": "41.41805139", 
            "long": "-96.1136275"
        }, 
        {
            "id": 38, 
            "iata": "3SQ", 
            "label": "St Charles", 
            "city": "St Charles", 
            "state": "MO", 
            "country": "USA", 
            "lat": "38.84866139", 
            "long": "-90.50011833"
        }, 
        {
            "id": 39, 
            "iata": "IXD", 
            "label": "New Century Aircenter", 
            "city": "Olathe", 
            "state": "KS", 
            "country": "USA", 
            "lat": "38.83090472", 
            "long": "-94.89030333"
        }, 
        {
            "id": 40, 
            "iata": "Y19", 
            "label": "Mandan Municipal", 
            "city": "Mandan", 
            "state": "ND", 
            "country": "USA", 
            "lat": "46.76823667", 
            "long": "-100.8943433"
        }, 
        {
            "id": 41, 
            "iata": "BYI", 
            "label": "Burley Municipal", 
            "city": "Burley", 
            "state": "ID", 
            "country": "USA", 
            "lat": "42.54260361", 
            "long": "-113.7715442"
        }, 
        {
            "id": 42, 
            "iata": "Y15", 
            "label": "Cheboygan City-County", 
            "city": "Cheboygan", 
            "state": "MI", 
            "country": "USA", 
            "lat": "45.65371028", 
            "long": "-84.51927306"
        }, 
        {
            "id": 43, 
            "iata": "BYG", 
            "label": "Johnson County", 
            "city": "Buffalo", 
            "state": "WY", 
            "country": "USA", 
            "lat": "44.38108528", 
            "long": "-106.7217897"
        }, 
        {
            "id": 44, 
            "iata": "3SG", 
            "label": "Harry W Browne", 
            "city": "Saginaw - H.Browne", 
            "state": "MI", 
            "country": "USA", 
            "lat": "43.43341028", 
            "long": "-83.86245833"
        }, 
        {
            "id": 45, 
            "iata": "BYA", 
            "label": "Boundary", 
            "city": "Boundary", 
            "state": "AK", 
            "country": "USA", 
            "lat": "64.07830278", 
            "long": "-141.113375"
        }, 
        {
            "id": 46, 
            "iata": "1O6", 
            "label": "Dunsmuir Municipal-Mott", 
            "city": "Dunsmuir", 
            "state": "CA", 
            "country": "USA", 
            "lat": "41.26320889", 
            "long": "-122.2719528"
        }, 
        {
            "id": 47, 
            "iata": "1O4", 
            "label": "Thomas Municipal", 
            "city": "Thomas", 
            "state": "OK", 
            "country": "USA", 
            "lat": "35.73338222", 
            "long": "-98.73063833"
        }, 
        {
            "id": 48, 
            "iata": "1O3", 
            "label": "Lodi", 
            "city": "Lodi", 
            "state": "CA", 
            "country": "USA", 
            "lat": "38.20241667", 
            "long": "-121.2684167"
        }, 
        {
            "id": 49, 
            "iata": "1O2", 
            "label": "Lampson ", 
            "city": "Lakeport", 
            "state": "CA", 
            "country": "USA", 
            "lat": "38.99017472", 
            "long": "-122.8997175"
        }, 
        {
            "id": 50, 
            "iata": "1O1", 
            "label": "Grandfield Municipal", 
            "city": "Grandfield", 
            "state": "OK", 
            "country": "USA", 
            "lat": "34.23758944", 
            "long": "-98.74200917"
        }, 
        {
            "id": 51, 
            "iata": "SNA", 
            "label": "John Wayne /Orange Co", 
            "city": "Santa Ana", 
            "state": "CA", 
            "country": "USA", 
            "lat": "33.67565861", 
            "long": "-117.8682225"
        }, 
        {
            "id": 52, 
            "iata": "5F4", 
            "label": "Homer Municipal", 
            "city": "Homer", 
            "state": "LA", 
            "country": "USA", 
            "lat": "32.78850806", 
            "long": "-93.00366083"
        }, 
        {
            "id": 53, 
            "iata": "NY0", 
            "label": "Fulton Cty", 
            "city": "Johnstown", 
            "state": "NY", 
            "country": "USA", 
            "lat": "42.99821222", 
            "long": "-74.32955111"
        }, 
        {
            "id": 54, 
            "iata": "JNX", 
            "label": "Johnston County", 
            "city": "Smithfield", 
            "state": "NC", 
            "country": "USA", 
            "lat": "35.54094139", 
            "long": "-78.39032944"
        }, 
        {
            "id": 55, 
            "iata": "PQL", 
            "label": "Trent Lott International", 
            "city": "Pascagoula", 
            "state": "MS", 
            "country": "USA", 
            "lat": "30.46278111", 
            "long": "-88.52922778"
        }, 
        {
            "id": 56, 
            "iata": "SNK", 
            "label": "Winston ", 
            "city": "Snyder", 
            "state": "TX", 
            "country": "USA", 
            "lat": "32.69338667", 
            "long": "-100.9504525"
        }, 
        {
            "id": 57, 
            "iata": "B21", 
            "label": "Sugarloaf Regional", 
            "city": "Carrabasset", 
            "state": "ME", 
            "country": "USA", 
            "lat": "45.08616639", 
            "long": "-70.21617778"
        }, 
        {
            "id": 58, 
            "iata": "O45", 
            "label": "Hooker Municipal", 
            "city": "Hooker", 
            "state": "OK", 
            "country": "USA", 
            "lat": "36.85708306", 
            "long": "-101.2270903"
        }, 
        {
            "id": 59, 
            "iata": "MAC", 
            "label": "Herbert Smart Downtown", 
            "city": "Macon", 
            "state": "GA", 
            "country": "USA", 
            "lat": "32.82213889", 
            "long": "-83.56202778"
        }, 
        {
            "id": 60, 
            "iata": "MAE", 
            "label": "Madera Municipal", 
            "city": "Madera", 
            "state": "CA", 
            "country": "USA", 
            "lat": "36.9857175", 
            "long": "-120.1119844"
        }, 
        {
            "id": 61, 
            "iata": "O46", 
            "label": "Weed", 
            "city": "Weed", 
            "state": "CA", 
            "country": "USA", 
            "lat": "41.47487", 
            "long": "-122.4530739"
        }, 
        {
            "id": 62, 
            "iata": "SNP", 
            "label": "St. Paul", 
            "city": "St. Paul", 
            "state": "AK", 
            "country": "USA", 
            "lat": "57.16733333", 
            "long": "-170.2204444"
        }, 
        {
            "id": 63, 
            "iata": "MAF", 
            "label": "Midland International", 
            "city": "Midland", 
            "state": "TX", 
            "country": "USA", 
            "lat": "31.94252778", 
            "long": "-102.2019139"
        }, 
        {
            "id": 64, 
            "iata": "MAI", 
            "label": "Marianna Municipal", 
            "city": "Marianna", 
            "state": "FL", 
            "country": "USA", 
            "lat": "30.83780556", 
            "long": "-85.18188889"
        }, 
        {
            "id": 65, 
            "iata": "YUM", 
            "label": "Yuma MCAS-Yuma International", 
            "city": "Yuma", 
            "state": "AZ", 
            "country": "USA", 
            "lat": "32.65658333", 
            "long": "-114.6059722"
        }, 
        {
            "id": 66, 
            "iata": "JST", 
            "label": "Johnstown-Cambria Cty", 
            "city": "Johnstown", 
            "state": "PA", 
            "country": "USA", 
            "lat": "40.31611111", 
            "long": "-78.83394444"
        }, 
        {
            "id": 67, 
            "iata": "MAL", 
            "label": "Malone-Dufort", 
            "city": "Malone", 
            "state": "NY", 
            "country": "USA", 
            "lat": "44.85365722", 
            "long": "-74.32894972"
        }, 
        {
            "id": 68, 
            "iata": "MAO", 
            "label": "Marion County", 
            "city": "Marion", 
            "state": "SC", 
            "country": "USA", 
            "lat": "34.18116667", 
            "long": "-79.33472222"
        }, 
        {
            "id": 69, 
            "iata": "AGZ", 
            "label": "Wagner Municipal", 
            "city": "Wagner", 
            "state": "SD", 
            "country": "USA", 
            "lat": "43.06332694", 
            "long": "-98.29618972"
        }, 
        {
            "id": 70, 
            "iata": "X47", 
            "label": "Flagler County", 
            "city": "Bunnell", 
            "state": "FL", 
            "country": "USA", 
            "lat": "29.46738889", 
            "long": "-81.20633333"
        }, 
        {
            "id": 71, 
            "iata": "D07", 
            "label": "Faith Municipal", 
            "city": "Faith", 
            "state": "SD", 
            "country": "USA", 
            "lat": "45.03609417", 
            "long": "-102.0198803"
        }, 
        {
            "id": 72, 
            "iata": "BEH", 
            "label": "Southwest Michigan Regional", 
            "city": "Benton Harbor", 
            "state": "MI", 
            "country": "USA", 
            "lat": "42.12858333", 
            "long": "-86.4285"
        }, 
        {
            "id": 73, 
            "iata": "X44", 
            "label": "Watson Island Base", 
            "city": "Miami", 
            "state": "FL", 
            "country": "USA", 
            "lat": "25.77833333", 
            "long": "-80.17027778"
        }, 
        {
            "id": 74, 
            "iata": "EVM", 
            "label": "Eveleth-Virginia Muni", 
            "city": "Eveleth", 
            "state": "MN", 
            "country": "USA", 
            "lat": "47.42507778", 
            "long": "-92.49846944"
        }, 
        {
            "id": 75, 
            "iata": "X40", 
            "label": "Inverness", 
            "city": "Inverness", 
            "state": "FL", 
            "country": "USA", 
            "lat": "28.80859639", 
            "long": "-82.31648167"
        }, 
        {
            "id": 76, 
            "iata": "EVB", 
            "label": "New Smyrna Beach Municipal", 
            "city": "New Smyrna Beach", 
            "state": "FL", 
            "country": "USA", 
            "lat": "29.05580556", 
            "long": "-80.94836111"
        }, 
        {
            "id": 77, 
            "iata": "BED", 
            "label": "Laurence G Hanscom ", 
            "city": "Bedford", 
            "state": "MA", 
            "country": "USA", 
            "lat": "42.46995306", 
            "long": "-71.28903"
        }, 
        {
            "id": 78, 
            "iata": "EVY", 
            "label": "Summit Airpark", 
            "city": "Middletown", 
            "state": "DE", 
            "country": "USA", 
            "lat": "39.52038889", 
            "long": "-75.72044444"
        }, 
        {
            "id": 79, 
            "iata": "PVU", 
            "label": "Provo Muni", 
            "city": "Provo", 
            "state": "UT", 
            "country": "USA", 
            "lat": "40.21919444", 
            "long": "-111.7233611"
        }, 
        {
            "id": 80, 
            "iata": "2F7", 
            "label": "Commerce Municipal", 
            "city": "Commerce", 
            "state": "TX", 
            "country": "USA", 
            "lat": "33.29288889", 
            "long": "-95.89641806"
        }, 
        {
            "id": 81, 
            "iata": "EVU", 
            "label": "Maryville Memorial", 
            "city": "Maryville", 
            "state": "MO", 
            "country": "USA", 
            "lat": "40.35260167", 
            "long": "-94.91552722"
        }, 
        {
            "id": 82, 
            "iata": "BET", 
            "label": "Bethel", 
            "city": "Bethel", 
            "state": "AK", 
            "country": "USA", 
            "lat": "60.77977639", 
            "long": "-161.8379975"
        }, 
        {
            "id": 83, 
            "iata": "EVW", 
            "label": "Evanston-Uinta County Burns ", 
            "city": "Evanston", 
            "state": "WY", 
            "country": "USA", 
            "lat": "41.27494528", 
            "long": "-111.0321286"
        }, 
        {
            "id": 84, 
            "iata": "LSE", 
            "label": "La Crosse Municipal", 
            "city": "La Crosse", 
            "state": "WI", 
            "country": "USA", 
            "lat": "43.87937972", 
            "long": "-91.25653778"
        }, 
        {
            "id": 85, 
            "iata": "10N", 
            "label": "Wallkill", 
            "city": "Wallkill", 
            "state": "NY", 
            "country": "USA", 
            "lat": "41.62787111", 
            "long": "-74.13375583"
        }, 
        {
            "id": 86, 
            "iata": "LSN", 
            "label": "Los Banos Municipal", 
            "city": "Los Banos", 
            "state": "CA", 
            "country": "USA", 
            "lat": "37.06290556", 
            "long": "-120.8692511"
        }, 
        {
            "id": 87, 
            "iata": "10C", 
            "label": "Galt", 
            "city": "Chicago/Greenwood/Wonderlake", 
            "state": "IL", 
            "country": "USA", 
            "lat": "42.40266472", 
            "long": "-88.37588917"
        }, 
        {
            "id": 88, 
            "iata": "10G", 
            "label": "Holmes County", 
            "city": "Millersburg", 
            "state": "OH", 
            "country": "USA", 
            "lat": "40.53716667", 
            "long": "-81.95436111"
        }, 
        {
            "id": 89, 
            "iata": "10D", 
            "label": "Winsted Municipal", 
            "city": "Winsted", 
            "state": "MN", 
            "country": "USA", 
            "lat": "44.94996278", 
            "long": "-94.0669175"
        }, 
        {
            "id": 90, 
            "iata": "0Q5", 
            "label": "Shelter Cove", 
            "city": "Shelter Cove", 
            "state": "CA", 
            "country": "USA", 
            "lat": "40.02764333", 
            "long": "-124.0733639"
        }, 
        {
            "id": 91, 
            "iata": "0Q6", 
            "label": "Shingletown", 
            "city": "Shingletown", 
            "state": "CA", 
            "country": "USA", 
            "lat": "40.52210111", 
            "long": "-121.8177683"
        }, 
        {
            "id": 92, 
            "iata": "TTA", 
            "label": "Sanford-Lee County Regional", 
            "city": "Sanford", 
            "state": "NC", 
            "country": "USA", 
            "lat": "35.58247222", 
            "long": "-79.10136111"
        }, 
        {
            "id": 93, 
            "iata": "TTF", 
            "label": "Monroe Custer", 
            "city": "Monroe", 
            "state": "MI", 
            "country": "USA", 
            "lat": "41.93990639", 
            "long": "-83.43468306"
        }, 
        {
            "id": 94, 
            "iata": "10U", 
            "label": "Owyhee", 
            "city": "Owyhee", 
            "state": "NV", 
            "country": "USA", 
            "lat": "41.95323306", 
            "long": "-116.1876014"
        }, 
        {
            "id": 95, 
            "iata": "H19", 
            "label": "Bowling Green Municipal", 
            "city": "Bowling Green", 
            "state": "MO", 
            "country": "USA", 
            "lat": "39.36993361", 
            "long": "-91.21925556"
        }, 
        {
            "id": 96, 
            "iata": "X23", 
            "label": "Umatilla Municipal", 
            "city": "Umatilla", 
            "state": "FL", 
            "country": "USA", 
            "lat": "28.922765", 
            "long": "-81.65174111"
        }, 
        {
            "id": 97, 
            "iata": "GRR", 
            "label": "Kent County International", 
            "city": "Grand Rapids", 
            "state": "MI", 
            "country": "USA", 
            "lat": "42.88081972", 
            "long": "-85.52276778"
        }, 
        {
            "id": 98, 
            "iata": "GRD", 
            "label": "Greenwood County", 
            "city": "Greenwood", 
            "state": "SC", 
            "country": "USA", 
            "lat": "34.24872222", 
            "long": "-82.15908333"
        }, 
        {
            "id": 99, 
            "iata": "GRE", 
            "label": "Greenville", 
            "city": "Greenville", 
            "state": "IL", 
            "country": "USA", 
            "lat": "38.83615778", 
            "long": "-89.37841111"
        }, 
        {
            "id": 100, 
            "iata": "GRB", 
            "label": "Austin Straubel International", 
            "city": "Green Bay", 
            "state": "WI", 
            "country": "USA", 
            "lat": "44.48507333", 
            "long": "-88.12959"
        }, 
        {
            "id": 101, 
            "iata": "ENN", 
            "label": "Nenana Municipal", 
            "city": "Nenana", 
            "state": "AK", 
            "country": "USA", 
            "lat": "64.54898167", 
            "long": "-149.0735053"
        }, 
        {
            "id": 102, 
            "iata": "GRN", 
            "label": "Gordon Municipal", 
            "city": "Gordon", 
            "state": "NE", 
            "country": "USA", 
            "lat": "42.80597222", 
            "long": "-102.17525"
        }, 
        {
            "id": 103, 
            "iata": "GRO", 
            "label": "Rota International", 
            "city": "Rota Island", 
            "state": "CQ", 
            "country": "USA", 
            "lat": "14.1743075", 
            "long": "-145.2425353"
        }, 
        {
            "id": 104, 
            "iata": "GRK", 
            "label": "Robert Gray AAF", 
            "city": "Killeen", 
            "state": "TX", 
            "country": "USA", 
            "lat": "31.06489778", 
            "long": "-97.82779778"
        }, 
        {
            "id": 105, 
            "iata": "GRI", 
            "label": "Central Nebraska Regional ", 
            "city": "Grand Island", 
            "state": "NE", 
            "country": "USA", 
            "lat": "40.96747222", 
            "long": "-98.30861111"
        }, 
        {
            "id": 106, 
            "iata": "27A", 
            "label": "Elbert County-Patz ", 
            "city": "Elberton", 
            "state": "GA", 
            "country": "USA", 
            "lat": "34.09519722", 
            "long": "-82.81586417"
        }, 
        {
            "id": 107, 
            "iata": "27D", 
            "label": "Myers ", 
            "city": "Canby", 
            "state": "MN", 
            "country": "USA", 
            "lat": "44.72801889", 
            "long": "-96.26309972"
        }, 
        {
            "id": 108, 
            "iata": "HLX", 
            "label": "Twin County", 
            "city": "Galax", 
            "state": "VA", 
            "country": "USA", 
            "lat": "36.76611472", 
            "long": "-80.82356556"
        }, 
        {
            "id": 109, 
            "iata": "27J", 
            "label": "Newberry Municipal", 
            "city": "Newberry", 
            "state": "SC", 
            "country": "USA", 
            "lat": "34.30927778", 
            "long": "-81.63972222"
        }, 
        {
            "id": 110, 
            "iata": "27K", 
            "label": "Georgetown-Scott County", 
            "city": "Georgetown", 
            "state": "KY", 
            "country": "USA", 
            "lat": "38.23442528", 
            "long": "-84.43468667"
        }, 
        {
            "id": 111, 
            "iata": "HLN", 
            "label": "Helena Regional", 
            "city": "Helena", 
            "state": "MT", 
            "country": "USA", 
            "lat": "46.60681806", 
            "long": "-111.9827503"
        }, 
        {
            "id": 112, 
            "iata": "HLG", 
            "label": "Wheeling-Ohio Cty", 
            "city": "Wheeling", 
            "state": "WV", 
            "country": "USA", 
            "lat": "40.175", 
            "long": "-80.64627778"
        }, 
        {
            "id": 113, 
            "iata": "RFG", 
            "label": "Refugio-Rooke ", 
            "city": "Refugio", 
            "state": "TX", 
            "country": "USA", 
            "lat": "28.29361694", 
            "long": "-97.32304833"
        }, 
        {
            "id": 114, 
            "iata": "HLC", 
            "label": "Hill City Municipal", 
            "city": "Hill City", 
            "state": "KS", 
            "country": "USA", 
            "lat": "39.37883611", 
            "long": "-99.83149444"
        }, 
        {
            "id": 115, 
            "iata": "KKB", 
            "label": "Kitoi Bay SPB", 
            "city": "Kitoi Bay", 
            "state": "AK", 
            "country": "USA", 
            "lat": "58.19094611", 
            "long": "-152.3704875"
        }, 
        {
            "id": 116, 
            "iata": "HYA", 
            "label": "Barnstable Mun Boardman/Polando ", 
            "city": "Hyannis", 
            "state": "MA", 
            "country": "USA", 
            "lat": "41.66933639", 
            "long": "-70.28035583"
        }, 
        {
            "id": 117, 
            "iata": "ENW", 
            "label": "Kenosha Regional", 
            "city": "Kenosha", 
            "state": "WI", 
            "country": "USA", 
            "lat": "42.5957075", 
            "long": "-87.92780333"
        }, 
        {
            "id": 118, 
            "iata": "CTY", 
            "label": "Cross City ", 
            "city": "Cross City", 
            "state": "FL", 
            "country": "USA", 
            "lat": "29.63552778", 
            "long": "-83.10475"
        }, 
        {
            "id": 119, 
            "iata": "CTZ", 
            "label": "Sampson County", 
            "city": "Clinton", 
            "state": "NC", 
            "country": "USA", 
            "lat": "34.97561194", 
            "long": "-78.36461528"
        }, 
        {
            "id": 120, 
            "iata": "OXD", 
            "label": "Miami University", 
            "city": "Oxford", 
            "state": "OH", 
            "country": "USA", 
            "lat": "39.50203917", 
            "long": "-84.7841425"
        }, 
        {
            "id": 121, 
            "iata": "CTB", 
            "label": "Cut Bank Muni", 
            "city": "Cut Bank", 
            "state": "MT", 
            "country": "USA", 
            "lat": "48.60835444", 
            "long": "-112.3761464"
        }, 
        {
            "id": 122, 
            "iata": "VBT", 
            "label": "Bentonville Municipal", 
            "city": "Bentonville", 
            "state": "AR", 
            "country": "USA", 
            "lat": "36.34571528", 
            "long": "-94.219345"
        }, 
        {
            "id": 123, 
            "iata": "GGE", 
            "label": "Georgetown County", 
            "city": "Georgetown", 
            "state": "SC", 
            "country": "USA", 
            "lat": "33.31169444", 
            "long": "-79.31958333"
        }, 
        {
            "id": 124, 
            "iata": "RCX", 
            "label": "Rusk County", 
            "city": "Ladysmith", 
            "state": "WI", 
            "country": "USA", 
            "lat": "45.49825694", 
            "long": "-91.00186361"
        }, 
        {
            "id": 125, 
            "iata": "CTJ", 
            "label": "West Georgia Regional", 
            "city": "Carrollton", 
            "state": "GA", 
            "country": "USA", 
            "lat": "33.63102778", 
            "long": "-85.15202778"
        }, 
        {
            "id": 126, 
            "iata": "CTK", 
            "label": "Ingersoll", 
            "city": "Canton", 
            "state": "IL", 
            "country": "USA", 
            "lat": "40.56909444", 
            "long": "-90.07484"
        }, 
        {
            "id": 127, 
            "iata": "Q99", 
            "label": "South County  of Santa Clara Co", 
            "city": "San Martin", 
            "state": "CA", 
            "country": "USA", 
            "lat": "37.08158611", 
            "long": "-121.5968056"
        }, 
        {
            "id": 128, 
            "iata": "Q95", 
            "label": "Ruth", 
            "city": "Ruth", 
            "state": "CA", 
            "country": "USA", 
            "lat": "40.21125917", 
            "long": "-123.2975231"
        }, 
        {
            "id": 129, 
            "iata": "Q94", 
            "label": "Rio Linda", 
            "city": "Rio Linda", 
            "state": "CA", 
            "country": "USA", 
            "lat": "38.67601389", 
            "long": "-121.4455092"
        }, 
        {
            "id": 130, 
            "iata": "HYG", 
            "label": "Hydaburg SPB", 
            "city": "Hydaburg", 
            "state": "AK", 
            "country": "USA", 
            "lat": "55.20631611", 
            "long": "-132.8283131"
        }, 
        {
            "id": 131, 
            "iata": "F17", 
            "label": "Center Municipal", 
            "city": "Center", 
            "state": "TX", 
            "country": "USA", 
            "lat": "31.83158333", 
            "long": "-94.15641667"
        }, 
        {
            "id": 132, 
            "iata": "1S3", 
            "label": "Tillitt ", 
            "city": "Forsyth", 
            "state": "MT", 
            "country": "USA", 
            "lat": "46.27110639", 
            "long": "-106.6239206"
        }, 
        {
            "id": 133, 
            "iata": "1S0", 
            "label": "Pierce County ", 
            "city": "Puyallup", 
            "state": "WA", 
            "country": "USA", 
            "lat": "47.10391667", 
            "long": "-122.2871944"
        }, 
        {
            "id": 134, 
            "iata": "4J5", 
            "label": "Quitman-Brooks County", 
            "city": "Quitman", 
            "state": "GA", 
            "country": "USA", 
            "lat": "30.80575139", 
            "long": "-83.58654889"
        }, 
        {
            "id": 135, 
            "iata": "1S6", 
            "label": "Priest River Muni", 
            "city": "Priest River", 
            "state": "ID", 
            "country": "USA", 
            "lat": "48.19018611", 
            "long": "-116.9093644"
        }, 
        {
            "id": 136, 
            "iata": "1S5", 
            "label": "Sunnyside Municipal", 
            "city": "Sunnyside", 
            "state": "WA", 
            "country": "USA", 
            "lat": "46.32763139", 
            "long": "-119.9705964"
        }, 
        {
            "id": 137, 
            "iata": "4J6", 
            "label": "St Marys", 
            "city": "St Marys", 
            "state": "GA", 
            "country": "USA", 
            "lat": "30.75468028", 
            "long": "-81.55731917"
        }, 
        {
            "id": 138, 
            "iata": "E24", 
            "label": "Whiteriver", 
            "city": "Whiteriver", 
            "state": "AZ", 
            "country": "USA", 
            "lat": "33.81255056", 
            "long": "-109.9867658"
        }, 
        {
            "id": 139, 
            "iata": "E25", 
            "label": "Wickenburg Municipal", 
            "city": "Wickenburg", 
            "state": "AZ", 
            "country": "USA", 
            "lat": "33.96891833", 
            "long": "-112.7985128"
        }, 
        {
            "id": 140, 
            "iata": "E26", 
            "label": "Lea County", 
            "city": "Jal", 
            "state": "NM", 
            "country": "USA", 
            "lat": "32.13107833", 
            "long": "-103.1548506"
        }, 
        {
            "id": 141, 
            "iata": "70J", 
            "label": "Cairo-Grady County", 
            "city": "Cairo", 
            "state": "GA", 
            "country": "USA", 
            "lat": "30.88797667", 
            "long": "-84.15473528"
        }, 
        {
            "id": 142, 
            "iata": "5J9", 
            "label": "Twin City", 
            "city": "Loris", 
            "state": "SC", 
            "country": "USA", 
            "lat": "34.08848361", 
            "long": "-78.86462028"
        }, 
        {
            "id": 143, 
            "iata": "WSM", 
            "label": "Wiseman", 
            "city": "Wiseman", 
            "state": "AK", 
            "country": "USA", 
            "lat": "67.40457333", 
            "long": "-150.1227417"
        }, 
        {
            "id": 144, 
            "iata": "5J0", 
            "label": "John Day State", 
            "city": "John Day", 
            "state": "OR", 
            "country": "USA", 
            "lat": "44.40416667", 
            "long": "-118.9625"
        }, 
        {
            "id": 145, 
            "iata": "TAL", 
            "label": "Ralph M Calhoun Memorial", 
            "city": "Tanana", 
            "state": "AK", 
            "country": "USA", 
            "lat": "65.17439528", 
            "long": "-152.1093886"
        }, 
        {
            "id": 146, 
            "iata": "SPA", 
            "label": "Spartanburg Downtown Memorial", 
            "city": "Spartanburg", 
            "state": "SC", 
            "country": "USA", 
            "lat": "34.91572222", 
            "long": "-81.9565"
        }, 
        {
            "id": 147, 
            "iata": "O17", 
            "label": "Nevada County  Air Park", 
            "city": "Grass Valley", 
            "state": "CA", 
            "country": "USA", 
            "lat": "39.22402778", 
            "long": "-121.0030833"
        }, 
        {
            "id": 148, 
            "iata": "O16", 
            "label": "Garberville", 
            "city": "Garberville", 
            "state": "CA", 
            "country": "USA", 
            "lat": "40.08597806", 
            "long": "-123.8136397"
        }, 
        {
            "id": 149, 
            "iata": "O15", 
            "label": "Turlock Municipal", 
            "city": "Turlock", 
            "state": "CA", 
            "country": "USA", 
            "lat": "37.48743556", 
            "long": "-120.6968669"
        }, 
        {
            "id": 150, 
            "iata": "O11", 
            "label": "Cherokee Nation", 
            "city": "Stilwell", 
            "state": "OK", 
            "country": "USA", 
            "lat": "35.75703083", 
            "long": "-94.64994417"
        }, 
        {
            "id": 151, 
            "iata": "EDE", 
            "label": "Edenton Municipal", 
            "city": "Edenton", 
            "state": "NC", 
            "country": "USA", 
            "lat": "36.027735", 
            "long": "-76.56709333"
        }, 
        {
            "id": 152, 
            "iata": "ORV", 
            "label": "Robert(Bob) Curtis Memorial", 
            "city": "Noorvik", 
            "state": "AK", 
            "country": "USA", 
            "lat": "66.82852667", 
            "long": "-161.0277908"
        }, 
        {
            "id": 153, 
            "iata": "RLD", 
            "label": "Richland", 
            "city": "Richland", 
            "state": "WA", 
            "country": "USA", 
            "lat": "46.305635", 
            "long": "-119.3041853"
        }, 
        {
            "id": 154, 
            "iata": "05F", 
            "label": "Gatesville - City/County", 
            "city": "Gatesville", 
            "state": "TX", 
            "country": "USA", 
            "lat": "31.42127556", 
            "long": "-97.79696778"
        }, 
        {
            "id": 155, 
            "iata": "LMS", 
            "label": "Louisville-Winston County", 
            "city": "Louisville", 
            "state": "MS", 
            "country": "USA", 
            "lat": "33.14620944", 
            "long": "-89.06247917"
        }, 
        {
            "id": 156, 
            "iata": "EDN", 
            "label": "Enterprise Municipal", 
            "city": "Enterprise", 
            "state": "AL", 
            "country": "USA", 
            "lat": "31.29972222", 
            "long": "-85.89986111"
        }, 
        {
            "id": 157, 
            "iata": "4T6", 
            "label": "Mid-Way", 
            "city": "Midlothian-Waxahachie", 
            "state": "TX", 
            "country": "USA", 
            "lat": "32.45609722", 
            "long": "-96.91240972"
        }, 
        {
            "id": 158, 
            "iata": "O19", 
            "label": "Kneeland", 
            "city": "Eureka", 
            "state": "CA", 
            "country": "USA", 
            "lat": "40.7193", 
            "long": "-123.9275531"
        }, 
        {
            "id": 159, 
            "iata": "05C", 
            "label": "Griffith-Merrillville ", 
            "city": "Griffith", 
            "state": "IN", 
            "country": "USA", 
            "lat": "41.51961917", 
            "long": "-87.40109333"
        }, 
        {
            "id": 160, 
            "iata": "ORL", 
            "label": "Executive", 
            "city": "Orlando", 
            "state": "FL", 
            "country": "USA", 
            "lat": "28.54547222", 
            "long": "-81.33294444"
        }, 
        {
            "id": 161, 
            "iata": "SPF", 
            "label": "Black Hills-Clyde Ice ", 
            "city": "Spearfish", 
            "state": "SD", 
            "country": "USA", 
            "lat": "44.48022222", 
            "long": "-103.7768889"
        }, 
        {
            "id": 162, 
            "iata": "HPT", 
            "label": "Hampton Municipal", 
            "city": "Hampton", 
            "state": "IA", 
            "country": "USA", 
            "lat": "42.72372361", 
            "long": "-93.22634056"
        }, 
        {
            "id": 163, 
            "iata": "ORI", 
            "label": "Port Lions", 
            "city": "Port Lions", 
            "state": "AK", 
            "country": "USA", 
            "lat": "57.8853775", 
            "long": "-152.8461011"
        }, 
        {
            "id": 164, 
            "iata": "ORF", 
            "label": "Norfolk International", 
            "city": "Norfolk", 
            "state": "VA", 
            "country": "USA", 
            "lat": "36.89461111", 
            "long": "-76.20122222"
        }, 
        {
            "id": 165, 
            "iata": "05U", 
            "label": "Eureka", 
            "city": "Eureka", 
            "state": "NV", 
            "country": "USA", 
            "lat": "39.60416667", 
            "long": "-116.0050597"
        }, 
        {
            "id": 166, 
            "iata": "ORD", 
            "label": "Chicago O'Hare International", 
            "city": "Chicago", 
            "state": "IL", 
            "country": "USA", 
            "lat": "41.979595", 
            "long": "-87.90446417"
        }, 
        {
            "id": 167, 
            "iata": "ORE", 
            "label": "Orange Municipal", 
            "city": "Orange", 
            "state": "MA", 
            "country": "USA", 
            "lat": "42.57011889", 
            "long": "-72.28860667"
        }, 
        {
            "id": 168, 
            "iata": "ORB", 
            "label": "Orr Regional", 
            "city": "Orr", 
            "state": "MN", 
            "country": "USA", 
            "lat": "48.01592194", 
            "long": "-92.85605139"
        }, 
        {
            "id": 169, 
            "iata": "ORC", 
            "label": "Orange City Municipal", 
            "city": "Orange City", 
            "state": "IA", 
            "country": "USA", 
            "lat": "42.99026444", 
            "long": "-96.06279667"
        }, 
        {
            "id": 170, 
            "iata": "D38", 
            "label": "Canandaiga", 
            "city": "Canandaiga", 
            "state": "NY", 
            "country": "USA", 
            "lat": "42.90718611", 
            "long": "-77.32162639"
        }, 
        {
            "id": 171, 
            "iata": "ND44", 
            "label": "Mott Municipal", 
            "city": "Mott", 
            "state": "ND", 
            "country": "USA", 
            "lat": "46.359725", 
            "long": "-102.3229389"
        }, 
        {
            "id": 172, 
            "iata": "UKT", 
            "label": "Quakertown", 
            "city": "Quakertown", 
            "state": "PA", 
            "country": "USA", 
            "lat": "40.43521194", 
            "long": "-75.38192861"
        }, 
        {
            "id": 173, 
            "iata": "68A", 
            "label": "Wrangell SPB", 
            "city": "Wrangell", 
            "state": "AK", 
            "country": "USA", 
            "lat": "56.466325", 
            "long": "-132.3800181"
        }, 
        {
            "id": 174, 
            "iata": "LOZ", 
            "label": "London-Corbin  Magee ", 
            "city": "London", 
            "state": "KY", 
            "country": "USA", 
            "lat": "37.08727778", 
            "long": "-84.07677778"
        }, 
        {
            "id": 175, 
            "iata": "9S9", 
            "label": "Lexington", 
            "city": "Lexington", 
            "state": "OR", 
            "country": "USA", 
            "lat": "45.45263139", 
            "long": "-119.6886361"
        }, 
        {
            "id": 176, 
            "iata": "RNV", 
            "label": "Cleveland Municipal", 
            "city": "Cleveland", 
            "state": "MS", 
            "country": "USA", 
            "lat": "33.76114056", 
            "long": "-90.75787528"
        }, 
        {
            "id": 177, 
            "iata": "DPA", 
            "label": "Du Page", 
            "city": "Chicago/West Chicago", 
            "state": "IL", 
            "country": "USA", 
            "lat": "41.90688333", 
            "long": "-88.24841722"
        }, 
        {
            "id": 178, 
            "iata": "JLN", 
            "label": "Joplin Regional", 
            "city": "Joplin", 
            "state": "MO", 
            "country": "USA", 
            "lat": "37.15181361", 
            "long": "-94.49826833"
        }, 
        {
            "id": 179, 
            "iata": "9S2", 
            "label": "Scobey", 
            "city": "Scobey", 
            "state": "MT", 
            "country": "USA", 
            "lat": "48.80772722", 
            "long": "-105.43947"
        }, 
        {
            "id": 180, 
            "iata": "DPL", 
            "label": "P B Raiford", 
            "city": "Kenansville", 
            "state": "NC", 
            "country": "USA", 
            "lat": "35.00006444", 
            "long": "-77.981695"
        }, 
        {
            "id": 181, 
            "iata": "9S7", 
            "label": "Winifred", 
            "city": "Winifred", 
            "state": "MT", 
            "country": "USA", 
            "lat": "47.55164778", 
            "long": "-109.3776792"
        }, 
        {
            "id": 182, 
            "iata": "68S", 
            "label": "Davenport", 
            "city": "Davenport", 
            "state": "WA", 
            "country": "USA", 
            "lat": "47.65404528", 
            "long": "-118.1677519"
        }, 
        {
            "id": 183, 
            "iata": "9S4", 
            "label": "Mineral County", 
            "city": "Superior", 
            "state": "MT", 
            "country": "USA", 
            "lat": "47.16825944", 
            "long": "-114.8537411"
        }, 
        {
            "id": 184, 
            "iata": "ONO", 
            "label": "Ontario Muni", 
            "city": "Ontario", 
            "state": "OR", 
            "country": "USA", 
            "lat": "44.02052417", 
            "long": "-117.013635"
        }, 
        {
            "id": 185, 
            "iata": "ONL", 
            "label": "O Neill Municipal", 
            "city": "O Neill", 
            "state": "NE", 
            "country": "USA", 
            "lat": "42.46988889", 
            "long": "-98.68805556"
        }, 
        {
            "id": 186, 
            "iata": "ONM", 
            "label": "Socorro Municipal", 
            "city": "Socorro", 
            "state": "NM", 
            "country": "USA", 
            "lat": "34.02247222", 
            "long": "-106.9031389"
        }, 
        {
            "id": 187, 
            "iata": "N40", 
            "label": "Sky Manor ", 
            "city": "Pittstown", 
            "state": "NJ", 
            "country": "USA", 
            "lat": "40.56626889", 
            "long": "-74.97864139"
        }, 
        {
            "id": 188, 
            "iata": "ONA", 
            "label": "Winona Muni-Max Conrad", 
            "city": "Winona", 
            "state": "MN", 
            "country": "USA", 
            "lat": "44.07721306", 
            "long": "-91.70831694"
        }, 
        {
            "id": 189, 
            "iata": "IIY", 
            "label": "Washington-Wilkes County", 
            "city": "Washington", 
            "state": "GA", 
            "country": "USA", 
            "lat": "33.77987528", 
            "long": "-82.81661639"
        }, 
        {
            "id": 190, 
            "iata": "N47", 
            "label": "Pottstown Muni", 
            "city": "Pottstown", 
            "state": "PA", 
            "country": "USA", 
            "lat": "40.26040083", 
            "long": "-75.67085306"
        }, 
        {
            "id": 191, 
            "iata": "ONZ", 
            "label": "Grosse Ile Municipal", 
            "city": "Detroit - Grosse Ile", 
            "state": "MI", 
            "country": "USA", 
            "lat": "42.09860472", 
            "long": "-83.16105861"
        }, 
        {
            "id": 192, 
            "iata": "ONY", 
            "label": "Olney Municipal", 
            "city": "Olney", 
            "state": "TX", 
            "country": "USA", 
            "lat": "33.35088056", 
            "long": "-98.81916667"
        }, 
        {
            "id": 193, 
            "iata": "IIB", 
            "label": "Independence Municipal", 
            "city": "Independence", 
            "state": "IA", 
            "country": "USA", 
            "lat": "42.45359833", 
            "long": "-91.94761833"
        }, 
        {
            "id": 194, 
            "iata": "ERI", 
            "label": "Erie Intl", 
            "city": "Erie", 
            "state": "PA", 
            "country": "USA", 
            "lat": "42.08202139", 
            "long": "-80.17621556"
        }, 
        {
            "id": 195, 
            "iata": "AIA", 
            "label": "Alliance Municipal", 
            "city": "Alliance", 
            "state": "NE", 
            "country": "USA", 
            "lat": "42.05325", 
            "long": "-102.8037222"
        }, 
        {
            "id": 196, 
            "iata": "WA43", 
            "label": "Odessa Municipal", 
            "city": "Odessa", 
            "state": "WA", 
            "country": "USA", 
            "lat": "47.3582025", 
            "long": "-118.6733264"
        }, 
        {
            "id": 197, 
            "iata": "IIK", 
            "label": "Kipnuk", 
            "city": "Kipnuk", 
            "state": "AK", 
            "country": "USA", 
            "lat": "59.93295111", 
            "long": "-164.0305131"
        }, 
        {
            "id": 198, 
            "iata": "FXY", 
            "label": "Forest City Municipal", 
            "city": "Forest City", 
            "state": "IA", 
            "country": "USA", 
            "lat": "43.23473417", 
            "long": "-93.6241025"
        }, 
        {
            "id": 199, 
            "iata": "9A8", 
            "label": "Ugashik", 
            "city": "Ugashik", 
            "state": "AK", 
            "country": "USA", 
            "lat": "57.5278675", 
            "long": "-157.3993056"
        }, 
        {
            "id": 200, 
            "iata": "KYK", 
            "label": "Karluk", 
            "city": "Karluk", 
            "state": "AK", 
            "country": "USA", 
            "lat": "57.56706389", 
            "long": "-154.4503714"
        }, 
        {
            "id": 201, 
            "iata": "9A5", 
            "label": "Barwick-LaFayette ", 
            "city": "LaFayette", 
            "state": "GA", 
            "country": "USA", 
            "lat": "34.68896917", 
            "long": "-85.29023333"
        }, 
        {
            "id": 202, 
            "iata": "9A4", 
            "label": "Lawrence County ", 
            "city": "Courtland", 
            "state": "AL", 
            "country": "USA", 
            "lat": "34.65938889", 
            "long": "-87.34883333"
        }, 
        {
            "id": 203, 
            "iata": "9A6", 
            "label": "Chester Municipal", 
            "city": "Chester", 
            "state": "SC", 
            "country": "USA", 
            "lat": "34.78933333", 
            "long": "-81.19577778"
        }, 
        {
            "id": 204, 
            "iata": "9A1", 
            "label": "Covington Municipal", 
            "city": "Covington", 
            "state": "GA", 
            "country": "USA", 
            "lat": "33.6324825", 
            "long": "-83.84955806"
        }, 
        {
            "id": 205, 
            "iata": "9A3", 
            "label": "Chuathbaluk", 
            "city": "Chuathbaluk", 
            "state": "AK", 
            "country": "USA", 
            "lat": "61.58317306", 
            "long": "-159.2359667"
        }, 
        {
            "id": 206, 
            "iata": "RNT", 
            "label": "Renton Municipal", 
            "city": "Renton", 
            "state": "WA", 
            "country": "USA", 
            "lat": "47.49313889", 
            "long": "-122.21575"
        }, 
        {
            "id": 207, 
            "iata": "RZT", 
            "label": "Ross County", 
            "city": "Chillicothe", 
            "state": "OH", 
            "country": "USA", 
            "lat": "39.44136778", 
            "long": "-83.02251556"
        }, 
        {
            "id": 208, 
            "iata": "FXE", 
            "label": "Fort Lauderdale Executive", 
            "city": "Ft. Lauderdale", 
            "state": "FL", 
            "country": "USA", 
            "lat": "26.19728", 
            "long": "-80.17070833"
        }, 
        {
            "id": 209, 
            "iata": "RZZ", 
            "label": "Halifax County", 
            "city": "Roanoke Rapids", 
            "state": "NC", 
            "country": "USA", 
            "lat": "36.43945583", 
            "long": "-77.70934139"
        }, 
        {
            "id": 210, 
            "iata": "CFJ", 
            "label": "Crawfordsville Municipal", 
            "city": "Crawfordsville", 
            "state": "IN", 
            "country": "USA", 
            "lat": "39.97562861", 
            "long": "-86.91986361"
        }, 
        {
            "id": 211, 
            "iata": "CFK", 
            "label": "Chefornak", 
            "city": "Chefornak", 
            "state": "AK", 
            "country": "USA", 
            "lat": "60.14922556", 
            "long": "-164.2856325"
        }, 
        {
            "id": 212, 
            "iata": "S45", 
            "label": "Siletz Bay State", 
            "city": "Siletz Bay (Gleneden Beach)", 
            "state": "OR", 
            "country": "USA", 
            "lat": "44.87761139", 
            "long": "-124.0284472"
        }, 
        {
            "id": 213, 
            "iata": "PNP", 
            "label": "Pilot Point", 
            "city": "Pilot Point", 
            "state": "AK", 
            "country": "USA", 
            "lat": "57.58038056", 
            "long": "-157.5674444"
        }, 
        {
            "id": 214, 
            "iata": "CFD", 
            "label": "Coulter ", 
            "city": "Bryan", 
            "state": "TX", 
            "country": "USA", 
            "lat": "30.71569444", 
            "long": "-96.33136111"
        }, 
        {
            "id": 215, 
            "iata": "SNH", 
            "label": "Savannah Hardin County", 
            "city": "Savannah", 
            "state": "TN", 
            "country": "USA", 
            "lat": "35.17036", 
            "long": "-88.21587"
        }, 
        {
            "id": 216, 
            "iata": "55S", 
            "label": "Packwood", 
            "city": "Packwood", 
            "state": "WA", 
            "country": "USA", 
            "lat": "46.60400083", 
            "long": "-121.6778664"
        }, 
        {
            "id": 217, 
            "iata": "PNM", 
            "label": "Princeton Municipal", 
            "city": "Princeton", 
            "state": "MN", 
            "country": "USA", 
            "lat": "45.55986778", 
            "long": "-93.60821611"
        }, 
        {
            "id": 218, 
            "iata": "55J", 
            "label": "Fernandina Beach Municipal", 
            "city": "Fernandina Beach", 
            "state": "FL", 
            "country": "USA", 
            "lat": "30.61170083", 
            "long": "-81.462345"
        }, 
        {
            "id": 219, 
            "iata": "CFV", 
            "label": "Coffeyville Municipal", 
            "city": "Coffeyville", 
            "state": "KS", 
            "country": "USA", 
            "lat": "37.0940475", 
            "long": "-95.57189417"
        }, 
        {
            "id": 220, 
            "iata": "55D", 
            "label": "Grayling Army Airfield", 
            "city": "Grayling", 
            "state": "MI", 
            "country": "USA", 
            "lat": "44.68032028", 
            "long": "-84.72886278"
        }, 
        {
            "id": 221, 
            "iata": "CFT", 
            "label": "Greenlee County", 
            "city": "Clifton-Morenci", 
            "state": "AZ", 
            "country": "USA", 
            "lat": "32.95284306", 
            "long": "-109.2103453"
        }, 
        {
            "id": 222, 
            "iata": "PNE", 
            "label": "Northeast Philadelphia", 
            "city": "Philadelphia", 
            "state": "PA", 
            "country": "USA", 
            "lat": "40.08194417", 
            "long": "-75.01058667"
        }, 
        {
            "id": 223, 
            "iata": "M54", 
            "label": "Lebanon Municipal", 
            "city": "Lebanon", 
            "state": "TN", 
            "country": "USA", 
            "lat": "36.19041667", 
            "long": "-86.31569444"
        }, 
        {
            "id": 224, 
            "iata": "M53", 
            "label": "Humboldt Municipal", 
            "city": "Humboldt", 
            "state": "TN", 
            "country": "USA", 
            "lat": "35.80218", 
            "long": "-88.87494944"
        }, 
        {
            "id": 225, 
            "iata": "M52", 
            "label": "Franklin-Wilkins", 
            "city": "Lexington", 
            "state": "TN", 
            "country": "USA", 
            "lat": "35.65131944", 
            "long": "-88.37893444"
        }, 
        {
            "id": 226, 
            "iata": "M59", 
            "label": "Richton-Perry County", 
            "city": "Richton", 
            "state": "MS", 
            "country": "USA", 
            "lat": "31.31739944", 
            "long": "-88.93504778"
        }, 
        {
            "id": 227, 
            "iata": "M58", 
            "label": "Monett Municipal", 
            "city": "Monett", 
            "state": "MO", 
            "country": "USA", 
            "lat": "36.90621528", 
            "long": "-94.01275833"
        }, 
        {
            "id": 228, 
            "iata": "FAT", 
            "label": "Fresno Yosemite International", 
            "city": "Fresno", 
            "state": "CA", 
            "country": "USA", 
            "lat": "36.77619444", 
            "long": "-119.7181389"
        }, 
        {
            "id": 229, 
            "iata": "Y14", 
            "label": "Marv Skie-Lincoln County", 
            "city": "Tea", 
            "state": "SD", 
            "country": "USA", 
            "lat": "43.45747694", 
            "long": "-96.80199528"
        }, 
        {
            "id": 230, 
            "iata": "T74", 
            "label": "Taylor Municipal", 
            "city": "Taylor", 
            "state": "TX", 
            "country": "USA", 
            "lat": "30.57194444", 
            "long": "-97.44316667"
        }, 
        {
            "id": 231, 
            "iata": "ND06", 
            "label": "Cavalier Municipal", 
            "city": "Cavalier", 
            "state": "ND", 
            "country": "USA", 
            "lat": "48.78388139", 
            "long": "-97.62981028"
        }, 
        {
            "id": 232, 
            "iata": "37T", 
            "label": "Calico Rock-Izard County", 
            "city": "Calico Rock", 
            "state": "AR", 
            "country": "USA", 
            "lat": "36.16565278", 
            "long": "-92.14523611"
        }, 
        {
            "id": 233, 
            "iata": "37W", 
            "label": "Harnett County", 
            "city": "Erwin", 
            "state": "NC", 
            "country": "USA", 
            "lat": "35.37880028", 
            "long": "-78.73362917"
        }, 
        {
            "id": 234, 
            "iata": "OH30", 
            "label": "Put In Bay", 
            "city": "Put In Bay", 
            "state": "OH", 
            "country": "USA", 
            "lat": "41.63674333", 
            "long": "-82.82833333"
        }, 
        {
            "id": 235, 
            "iata": "PRG", 
            "label": "Edgar County", 
            "city": "Paris", 
            "state": "IL", 
            "country": "USA", 
            "lat": "39.70015944", 
            "long": "-87.66961861"
        }, 
        {
            "id": 236, 
            "iata": "JOT", 
            "label": "Joliet Park District", 
            "city": "Chicago/Joliet", 
            "state": "IL", 
            "country": "USA", 
            "lat": "41.51805833", 
            "long": "-88.17525583"
        }, 
        {
            "id": 237, 
            "iata": "SAN", 
            "label": "San Diego International-Lindbergh ", 
            "city": "San Diego", 
            "state": "CA", 
            "country": "USA", 
            "lat": "32.73355611", 
            "long": "-117.1896567"
        }, 
        {
            "id": 238, 
            "iata": "PRC", 
            "label": "Ernest A. Love ", 
            "city": "Prescott", 
            "state": "AZ", 
            "country": "USA", 
            "lat": "34.65447222", 
            "long": "-112.4195833"
        }, 
        {
            "id": 239, 
            "iata": "PRB", 
            "label": "Paso Robles Municipal", 
            "city": "Paso Robles", 
            "state": "CA", 
            "country": "USA", 
            "lat": "35.67288611", 
            "long": "-120.6270558"
        }, 
        {
            "id": 240, 
            "iata": "SAC", 
            "label": "Sacramento Executive", 
            "city": "Sacramento", 
            "state": "CA", 
            "country": "USA", 
            "lat": "38.51252389", 
            "long": "-121.4934689"
        }, 
        {
            "id": 241, 
            "iata": "PRO", 
            "label": "Perry Municipal", 
            "city": "Perry", 
            "state": "IA", 
            "country": "USA", 
            "lat": "41.82801306", 
            "long": "-94.15990361"
        }, 
        {
            "id": 242, 
            "iata": "PRN", 
            "label": "Greenville Municipal", 
            "city": "Greenville", 
            "state": "AL", 
            "country": "USA", 
            "lat": "31.84540222", 
            "long": "-86.61044583"
        }, 
        {
            "id": 243, 
            "iata": "H30", 
            "label": "Hamilton Municipal ", 
            "city": "Hamilton", 
            "state": "NY", 
            "country": "USA", 
            "lat": "42.84381889", 
            "long": "-75.56140194"
        }, 
        {
            "id": 244, 
            "iata": "SAD", 
            "label": "Safford Regional", 
            "city": "Safford", 
            "state": "AZ", 
            "country": "USA", 
            "lat": "32.85331278", 
            "long": "-109.6349708"
        }, 
        {
            "id": 245, 
            "iata": "SAZ", 
            "label": "Staples Municipal", 
            "city": "Staples", 
            "state": "MN", 
            "country": "USA", 
            "lat": "46.38087944", 
            "long": "-94.80660167"
        }, 
        {
            "id": 246, 
            "iata": "6M8", 
            "label": "Marked Tree Municipal", 
            "city": "Marked Tree", 
            "state": "AR", 
            "country": "USA", 
            "lat": "35.53341472", 
            "long": "-90.40149028"
        }, 
        {
            "id": 247, 
            "iata": "6M6", 
            "label": "Lewis County Regional", 
            "city": "Monticello", 
            "state": "MO", 
            "country": "USA", 
            "lat": "40.12916667", 
            "long": "-91.67833333"
        }, 
        {
            "id": 248, 
            "iata": "6M7", 
            "label": "Lee County-Marianna", 
            "city": "Marianna", 
            "state": "AR", 
            "country": "USA", 
            "lat": "34.78027778", 
            "long": "-90.81055556"
        }, 
        {
            "id": 249, 
            "iata": "6M2", 
            "label": "Horseshoe Bend", 
            "city": "Horseshoe Bend", 
            "state": "AR", 
            "country": "USA", 
            "lat": "36.21673389", 
            "long": "-91.75014556"
        }, 
        {
            "id": 250, 
            "iata": "ISQ", 
            "label": "Schoolcraft County", 
            "city": "Manistique", 
            "state": "MI", 
            "country": "USA", 
            "lat": "45.97464056", 
            "long": "-86.17183056"
        }, 
        {
            "id": 251, 
            "iata": "OWX", 
            "label": "Putnam County", 
            "city": "Ottawa", 
            "state": "OH", 
            "country": "USA", 
            "lat": "41.0355825", 
            "long": "-83.98202444"
        }, 
        {
            "id": 252, 
            "iata": "CHA", 
            "label": "Lovell ", 
            "city": "Chattanooga", 
            "state": "TN", 
            "country": "USA", 
            "lat": "35.03526833", 
            "long": "-85.20378778"
        }, 
        {
            "id": 253, 
            "iata": "CHD", 
            "label": "Chandler Municipal", 
            "city": "Chandler", 
            "state": "AZ", 
            "country": "USA", 
            "lat": "33.26908333", 
            "long": "-111.8111389"
        }, 
        {
            "id": 254, 
            "iata": "MRY", 
            "label": "Monterey Peninsula", 
            "city": "Monterey", 
            "state": "CA", 
            "country": "USA", 
            "lat": "36.5869825", 
            "long": "-121.8429478"
        }, 
        {
            "id": 255, 
            "iata": "JAX", 
            "label": "Jacksonville International", 
            "city": "Jacksonville", 
            "state": "FL", 
            "country": "USA", 
            "lat": "30.49405556", 
            "long": "-81.68786111"
        }, 
        {
            "id": 256, 
            "iata": "L08", 
            "label": "Borrego Valley", 
            "city": "Borrego Springs", 
            "state": "CA", 
            "country": "USA", 
            "lat": "33.25902778", 
            "long": "-116.3209722"
        }, 
        {
            "id": 257, 
            "iata": "40N", 
            "label": "Chester Cty-G O Carlson", 
            "city": "Coatesville", 
            "state": "PA", 
            "country": "USA", 
            "lat": "39.97897222", 
            "long": "-75.86547222"
        }, 
        {
            "id": 258, 
            "iata": "L05", 
            "label": "Kern Valley", 
            "city": "Kernville", 
            "state": "CA", 
            "country": "USA", 
            "lat": "35.72828472", 
            "long": "-118.4198069"
        }, 
        {
            "id": 259, 
            "iata": "CHK", 
            "label": "Chickasha Municipal", 
            "city": "Chickasha", 
            "state": "OK", 
            "country": "USA", 
            "lat": "35.09614694", 
            "long": "-97.96618361"
        }, 
        {
            "id": 260, 
            "iata": "40J", 
            "label": "Perry-Foley", 
            "city": "Perry", 
            "state": "FL", 
            "country": "USA", 
            "lat": "30.06927778", 
            "long": "-83.58058333"
        }, 
        {
            "id": 261, 
            "iata": "CHO", 
            "label": "Charlottesville-Albermarle", 
            "city": "Charlottesville", 
            "state": "VA", 
            "country": "USA", 
            "lat": "38.13863889", 
            "long": "-78.45286111"
        }, 
        {
            "id": 262, 
            "iata": "CHP", 
            "label": "Circle Hot Springs", 
            "city": "Circle Hot Springs", 
            "state": "AK", 
            "country": "USA", 
            "lat": "65.48547222", 
            "long": "-144.6107836"
        }, 
        {
            "id": 263, 
            "iata": "3R0", 
            "label": "Beeville Municipal", 
            "city": "Beeville", 
            "state": "TX", 
            "country": "USA", 
            "lat": "28.36455528", 
            "long": "-97.79208194"
        }, 
        {
            "id": 264, 
            "iata": "CHS", 
            "label": "Charleston AFB/International", 
            "city": "Charleston", 
            "state": "SC", 
            "country": "USA", 
            "lat": "32.89864639", 
            "long": "-80.04050583"
        }, 
        {
            "id": 265, 
            "iata": "CHT", 
            "label": "Chillicothe Municipal", 
            "city": "Chillicothe", 
            "state": "MO", 
            "country": "USA", 
            "lat": "39.78215278", 
            "long": "-93.49568056"
        }, 
        {
            "id": 266, 
            "iata": "3R7", 
            "label": "Jennings", 
            "city": "Jennings", 
            "state": "LA", 
            "country": "USA", 
            "lat": "30.24269333", 
            "long": "-92.67344778"
        }, 
        {
            "id": 267, 
            "iata": "3R4", 
            "label": "Hart", 
            "city": "Many", 
            "state": "LA", 
            "country": "USA", 
            "lat": "31.54489667", 
            "long": "-93.48645306"
        }, 
        {
            "id": 268, 
            "iata": "MRF", 
            "label": "Marfa Municipal", 
            "city": "Marfa", 
            "state": "TX", 
            "country": "USA", 
            "lat": "30.37147222", 
            "long": "-104.0166944"
        }, 
        {
            "id": 269, 
            "iata": "Z73", 
            "label": "Nelson Lagoon", 
            "city": "Nelson Lagoon", 
            "state": "AK", 
            "country": "USA", 
            "lat": "56.00753611", 
            "long": "-161.1603672"
        }, 
        {
            "id": 270, 
            "iata": "JAC", 
            "label": "Jackson Hole", 
            "city": "Jackson", 
            "state": "WY", 
            "country": "USA", 
            "lat": "43.60732417", 
            "long": "-110.7377389"
        }, 
        {
            "id": 271, 
            "iata": "MRB", 
            "label": "Eastern Wv Reg/Shephard ", 
            "city": "Martinsburg", 
            "state": "WV", 
            "country": "USA", 
            "lat": "39.40193278", 
            "long": "-77.98458139"
        }, 
        {
            "id": 272, 
            "iata": "MRC", 
            "label": "Maury County", 
            "city": "Columbia-Mt Pleasant", 
            "state": "TN", 
            "country": "USA", 
            "lat": "35.55413889", 
            "long": "-87.17891667"
        }, 
        {
            "id": 273, 
            "iata": "JNU", 
            "label": "Juneau International", 
            "city": "Juneau", 
            "state": "AK", 
            "country": "USA", 
            "lat": "58.35496194", 
            "long": "-134.5762764"
        }, 
        {
            "id": 274, 
            "iata": "DBN", 
            "label": "W. H. \\Bud\\\" Barron \"", 
            "city": "Dublin", 
            "state": "GA", 
            "country": "USA", 
            "lat": "32.56445806", 
            "long": "-82.98525556"
        }, 
        {
            "id": 275, 
            "iata": "APV", 
            "label": "Apple Valley", 
            "city": "Apple Valley", 
            "state": "CA", 
            "country": "USA", 
            "lat": "34.57528944", 
            "long": "-117.1861792"
        }, 
        {
            "id": 276, 
            "iata": "APT", 
            "label": "Marion County-Brown ", 
            "city": "Jasper", 
            "state": "TN", 
            "country": "USA", 
            "lat": "35.06067778", 
            "long": "-85.58531667"
        }, 
        {
            "id": 277, 
            "iata": "MDZ", 
            "label": "Taylor County ", 
            "city": "Medford", 
            "state": "WI", 
            "country": "USA", 
            "lat": "45.10097556", 
            "long": "-90.30341"
        }, 
        {
            "id": 278, 
            "iata": "APN", 
            "label": "Alpena County Regional ", 
            "city": "Alpena", 
            "state": "MI", 
            "country": "USA", 
            "lat": "45.0780675", 
            "long": "-83.56028583"
        }, 
        {
            "id": 279, 
            "iata": "PQI", 
            "label": "Northern Maine Regional", 
            "city": "Presque Isle", 
            "state": "ME", 
            "country": "USA", 
            "lat": "46.68896", 
            "long": "-68.04479972"
        }, 
        {
            "id": 280, 
            "iata": "DBQ", 
            "label": "Dubuque Municipal", 
            "city": "Dubuque", 
            "state": "IA", 
            "country": "USA", 
            "lat": "42.40295944", 
            "long": "-90.70916722"
        }, 
        {
            "id": 281, 
            "iata": "APC", 
            "label": "Napa County", 
            "city": "Napa", 
            "state": "CA", 
            "country": "USA", 
            "lat": "38.21319444", 
            "long": "-122.2806944"
        }, 
        {
            "id": 282, 
            "iata": "APA", 
            "label": "Centennial", 
            "city": "Denver", 
            "state": "CO", 
            "country": "USA", 
            "lat": "39.57012833", 
            "long": "-104.8492942"
        }, 
        {
            "id": 283, 
            "iata": "APF", 
            "label": "Naples Municipal", 
            "city": "Naples", 
            "state": "FL", 
            "country": "USA", 
            "lat": "26.15247222", 
            "long": "-81.77544444"
        }, 
        {
            "id": 284, 
            "iata": "SNL", 
            "label": "Shawnee Municipal", 
            "city": "Shawnee", 
            "state": "OK", 
            "country": "USA", 
            "lat": "35.35730333", 
            "long": "-96.94282833"
        }, 
        {
            "id": 285, 
            "iata": "ISN", 
            "label": "Sloulin Field International", 
            "city": "Williston", 
            "state": "ND", 
            "country": "USA", 
            "lat": "48.17793861", 
            "long": "-103.6423467"
        }, 
        {
            "id": 286, 
            "iata": "Y03", 
            "label": "Springfield Municipal", 
            "city": "Springfield", 
            "state": "SD", 
            "country": "USA", 
            "lat": "42.87999833", 
            "long": "-97.90117972"
        }, 
        {
            "id": 287, 
            "iata": "MAZ", 
            "label": "Eugenio Maria De Hostos", 
            "city": "Mayaguez", 
            "state": "PR", 
            "country": "USA", 
            "lat": "18.25569444", 
            "long": "-67.14847222"
        }, 
        {
            "id": 288, 
            "iata": "PQN", 
            "label": "Pipestone Municipal", 
            "city": "Pipestone", 
            "state": "MN", 
            "country": "USA", 
            "lat": "43.98330333", 
            "long": "-96.30031083"
        }, 
        {
            "id": 289, 
            "iata": "MLU", 
            "label": "Monroe Regional", 
            "city": "Monroe", 
            "state": "LA", 
            "country": "USA", 
            "lat": "32.51086556", 
            "long": "-92.03768778"
        }, 
        {
            "id": 290, 
            "iata": "OR33", 
            "label": "Boardman", 
            "city": "Boardman", 
            "state": "OR", 
            "country": "USA", 
            "lat": "45.814825", 
            "long": "-119.8205006"
        }, 
        {
            "id": 291, 
            "iata": "XNA", 
            "label": "Northwest Arkansas Regional", 
            "city": "Fayetteville/Springdale/Rogers", 
            "state": "AR", 
            "country": "USA", 
            "lat": "36.28186944", 
            "long": "-94.30681111"
        }, 
        {
            "id": 292, 
            "iata": "1N4", 
            "label": "Woodbine Muni ", 
            "city": "Woodbine", 
            "state": "NJ", 
            "country": "USA", 
            "lat": "39.21915", 
            "long": "-74.794765"
        }, 
        {
            "id": 293, 
            "iata": "1N7", 
            "label": "Blairstown", 
            "city": "Blairstown", 
            "state": "NJ", 
            "country": "USA", 
            "lat": "40.97114556", 
            "long": "-74.99747556"
        }, 
        {
            "id": 294, 
            "iata": "24A", 
            "label": "Jackson County", 
            "city": "Sylva", 
            "state": "NC", 
            "country": "USA", 
            "lat": "35.3168625", 
            "long": "-83.20936806"
        }, 
        {
            "id": 295, 
            "iata": "1N2", 
            "label": "Spadaro ", 
            "city": "East Moriches", 
            "state": "NY", 
            "country": "USA", 
            "lat": "40.82787639", 
            "long": "-72.74871083"
        }, 
        {
            "id": 296, 
            "iata": "TKA", 
            "label": "Talkeetna", 
            "city": "Talkeetna", 
            "state": "AK", 
            "country": "USA", 
            "lat": "62.3205", 
            "long": "-150.0936944"
        }, 
        {
            "id": 297, 
            "iata": "HMT", 
            "label": "Hemet-Ryan", 
            "city": "Hemet", 
            "state": "CA", 
            "country": "USA", 
            "lat": "33.73398167", 
            "long": "-117.0225258"
        }, 
        {
            "id": 298, 
            "iata": "24N", 
            "label": "Jicarilla Apache Nation", 
            "city": "Dulce", 
            "state": "NM", 
            "country": "USA", 
            "lat": "36.828535", 
            "long": "-106.8841914"
        }, 
        {
            "id": 299, 
            "iata": "1N9", 
            "label": "Allentown Queen City Muni", 
            "city": "Allentown", 
            "state": "PA", 
            "country": "USA", 
            "lat": "40.57027778", 
            "long": "-75.48830556"
        }, 
        {
            "id": 300, 
            "iata": "24J", 
            "label": "Suwannee County", 
            "city": "Live Oak", 
            "state": "FL", 
            "country": "USA", 
            "lat": "30.30105583", 
            "long": "-83.02318778"
        }, 
        {
            "id": 301, 
            "iata": "7K8", 
            "label": "Martin ", 
            "city": "South Sioux City", 
            "state": "NE", 
            "country": "USA", 
            "lat": "42.45416111", 
            "long": "-96.47253111"
        }, 
        {
            "id": 302, 
            "iata": "AHQ", 
            "label": "Wahoo Municipal", 
            "city": "Wahoo", 
            "state": "NE", 
            "country": "USA", 
            "lat": "41.24133333", 
            "long": "-96.59402778"
        }, 
        {
            "id": 303, 
            "iata": "7K0", 
            "label": "Pike County-Hatcher ", 
            "city": "Pikeville", 
            "state": "KY", 
            "country": "USA", 
            "lat": "37.56173889", 
            "long": "-82.56660694"
        }, 
        {
            "id": 304, 
            "iata": "7K2", 
            "label": "Skagway SPB", 
            "city": "Skagway", 
            "state": "AK", 
            "country": "USA", 
            "lat": "59.44689528", 
            "long": "-135.3226633"
        }, 
        {
            "id": 305, 
            "iata": "T90", 
            "label": "Chambers County", 
            "city": "Winnie/Stowell", 
            "state": "TX", 
            "country": "USA", 
            "lat": "29.80411", 
            "long": "-94.43102306"
        }, 
        {
            "id": 306, 
            "iata": "7K4", 
            "label": "Ohio County ", 
            "city": "Hartford", 
            "state": "KY", 
            "country": "USA", 
            "lat": "37.45832417", 
            "long": "-86.84995194"
        }, 
        {
            "id": 307, 
            "iata": "TKX", 
            "label": "Kennett Memorial", 
            "city": "Kennett", 
            "state": "MO", 
            "country": "USA", 
            "lat": "36.23087083", 
            "long": "-90.03466806"
        }, 
        {
            "id": 308, 
            "iata": "SNS", 
            "label": "Salinas Municipal", 
            "city": "Salinas", 
            "state": "CA", 
            "country": "USA", 
            "lat": "36.66279222", 
            "long": "-121.6063603"
        }, 
        {
            "id": 309, 
            "iata": "HYI", 
            "label": "San Marcos Municipal", 
            "city": "San Marcos", 
            "state": "TX", 
            "country": "USA", 
            "lat": "29.89361111", 
            "long": "-97.86469444"
        }, 
        {
            "id": 310, 
            "iata": "AFM", 
            "label": "Ambler", 
            "city": "Ambler", 
            "state": "AK", 
            "country": "USA", 
            "lat": "67.10610472", 
            "long": "-157.8536203"
        }, 
        {
            "id": 311, 
            "iata": "AFN", 
            "label": "Jaffrey Municipal Silver Ranch", 
            "city": "Jaffrey", 
            "state": "NH", 
            "country": "USA", 
            "lat": "42.80513417", 
            "long": "-72.00302194"
        }, 
        {
            "id": 312, 
            "iata": "AFO", 
            "label": "Afton Municipal", 
            "city": "Afton", 
            "state": "WY", 
            "country": "USA", 
            "lat": "42.71124583", 
            "long": "-110.9421639"
        }, 
        {
            "id": 313, 
            "iata": "DLG", 
            "label": "Dillingham", 
            "city": "Dillingham", 
            "state": "AK", 
            "country": "USA", 
            "lat": "59.0454125", 
            "long": "-158.5033389"
        }, 
        {
            "id": 314, 
            "iata": "T89", 
            "label": "Castroville Municipal", 
            "city": "Castroville", 
            "state": "TX", 
            "country": "USA", 
            "lat": "29.34192083", 
            "long": "-98.85090056"
        }, 
        {
            "id": 315, 
            "iata": "AFJ", 
            "label": "Washington County", 
            "city": "Washington", 
            "state": "PA", 
            "country": "USA", 
            "lat": "40.13648833", 
            "long": "-80.29020083"
        }, 
        {
            "id": 316, 
            "iata": "AFK", 
            "label": "Nebraska City Municipal", 
            "city": "Nebraska City", 
            "state": "NE", 
            "country": "USA", 
            "lat": "40.60688889", 
            "long": "-95.86569444"
        }, 
        {
            "id": 317, 
            "iata": "7KA", 
            "label": "Tatitlek", 
            "city": "Tatitlek", 
            "state": "AK", 
            "country": "USA", 
            "lat": "60.86890528", 
            "long": "-146.6864653"
        }, 
        {
            "id": 318, 
            "iata": "AFE", 
            "label": "Kake", 
            "city": "Kake", 
            "state": "AK", 
            "country": "USA", 
            "lat": "56.96048139", 
            "long": "-133.9082694"
        }, 
        {
            "id": 319, 
            "iata": "GCK", 
            "label": "Garden City Regional", 
            "city": "Garden City", 
            "state": "KS", 
            "country": "USA", 
            "lat": "37.92751556", 
            "long": "-100.7244147"
        }, 
        {
            "id": 320, 
            "iata": "DLH", 
            "label": "Duluth International", 
            "city": "Duluth", 
            "state": "MN", 
            "country": "USA", 
            "lat": "46.84209028", 
            "long": "-92.19364861"
        }, 
        {
            "id": 321, 
            "iata": "DLO", 
            "label": "Delano Municipal", 
            "city": "Delano", 
            "state": "CA", 
            "country": "USA", 
            "lat": "35.74558056", 
            "long": "-119.2365039"
        }, 
        {
            "id": 322, 
            "iata": "DLN", 
            "label": "Dillon", 
            "city": "Dillon", 
            "state": "MT", 
            "country": "USA", 
            "lat": "45.25536056", 
            "long": "-112.5525067"
        }, 
        {
            "id": 323, 
            "iata": "I35", 
            "label": "Tucker-Guthrie Memorial", 
            "city": "Harlan", 
            "state": "KY", 
            "country": "USA", 
            "lat": "36.85981028", 
            "long": "-83.36101639"
        }, 
        {
            "id": 324, 
            "iata": "DLL", 
            "label": "Baraboo - Wisconsin Dells", 
            "city": "Baraboo", 
            "state": "WI", 
            "country": "USA", 
            "lat": "43.52195389", 
            "long": "-89.77090222"
        }, 
        {
            "id": 325, 
            "iata": "DLS", 
            "label": "Columbia Gorge Regional", 
            "city": "The Dalles", 
            "state": "OR", 
            "country": "USA", 
            "lat": "45.61854556", 
            "long": "-121.1673439"
        }, 
        {
            "id": 326, 
            "iata": "GCT", 
            "label": "Guthrie County Regional", 
            "city": "Guthrie Center", 
            "state": "IA", 
            "country": "USA", 
            "lat": "41.68776417", 
            "long": "-94.43524611"
        }, 
        {
            "id": 327, 
            "iata": "GCY", 
            "label": "Greeneville Municipal", 
            "city": "Greeneville", 
            "state": "TN", 
            "country": "USA", 
            "lat": "36.19299083", 
            "long": "-82.81507028"
        }, 
        {
            "id": 328, 
            "iata": "DLZ", 
            "label": "Delaware Municipal", 
            "city": "Delaware", 
            "state": "OH", 
            "country": "USA", 
            "lat": "40.27970139", 
            "long": "-83.11480167"
        }, 
        {
            "id": 329, 
            "iata": "AFW", 
            "label": "Fort Worth Alliance", 
            "city": "Fort Worth", 
            "state": "TX", 
            "country": "USA", 
            "lat": "32.98763889", 
            "long": "-97.31880556"
        }, 
        {
            "id": 330, 
            "iata": "BTT", 
            "label": "Bettles", 
            "city": "Bettles", 
            "state": "AK", 
            "country": "USA", 
            "lat": "66.91528667", 
            "long": "-151.5280556"
        }, 
        {
            "id": 331, 
            "iata": "BTV", 
            "label": "Burlington International", 
            "city": "Burlington", 
            "state": "VT", 
            "country": "USA", 
            "lat": "44.47300361", 
            "long": "-73.1503125"
        }, 
        {
            "id": 332, 
            "iata": "BTP", 
            "label": "Butler Cty", 
            "city": "Butler", 
            "state": "PA", 
            "country": "USA", 
            "lat": "40.77692611", 
            "long": "-79.94972417"
        }, 
        {
            "id": 333, 
            "iata": "BTR", 
            "label": "Baton Rouge Metropolitan, Ryan ", 
            "city": "Baton Rouge", 
            "state": "LA", 
            "country": "USA", 
            "lat": "30.53316083", 
            "long": "-91.14963444"
        }, 
        {
            "id": 334, 
            "iata": "KXA", 
            "label": "Kasaan SPB", 
            "city": "Kasaan", 
            "state": "AK", 
            "country": "USA", 
            "lat": "55.53741389", 
            "long": "-132.3975144"
        }, 
        {
            "id": 335, 
            "iata": "BTY", 
            "label": "Beatty", 
            "city": "Beatty", 
            "state": "NV", 
            "country": "USA", 
            "lat": "36.86105722", 
            "long": "-116.7870036"
        }, 
        {
            "id": 336, 
            "iata": "39N", 
            "label": "Princeton", 
            "city": "Princeton", 
            "state": "NJ", 
            "country": "USA", 
            "lat": "40.39834833", 
            "long": "-74.65760361"
        }, 
        {
            "id": 337, 
            "iata": "T82", 
            "label": "Gillespie County", 
            "city": "Fredericksburg", 
            "state": "TX", 
            "country": "USA", 
            "lat": "30.24369444", 
            "long": "-98.90952778"
        }, 
        {
            "id": 338, 
            "iata": "0R5", 
            "label": "David G Joyce", 
            "city": "Winnfield", 
            "state": "LA", 
            "country": "USA", 
            "lat": "31.96366222", 
            "long": "-92.66026056"
        }, 
        {
            "id": 339, 
            "iata": "0R4", 
            "label": "Concordia Parish", 
            "city": "Vidalia", 
            "state": "LA", 
            "country": "USA", 
            "lat": "31.56683278", 
            "long": "-91.50011889"
        }, 
        {
            "id": 340, 
            "iata": "0R7", 
            "label": "Red River", 
            "city": "Coushatta", 
            "state": "LA", 
            "country": "USA", 
            "lat": "31.99071694", 
            "long": "-93.30739306"
        }, 
        {
            "id": 341, 
            "iata": "0R1", 
            "label": "Atmore Municipal", 
            "city": "Atmore", 
            "state": "AL", 
            "country": "USA", 
            "lat": "31.01621528", 
            "long": "-87.44675972"
        }, 
        {
            "id": 342, 
            "iata": "0R0", 
            "label": "Columbia-Marion County", 
            "city": "Columbia", 
            "state": "MS", 
            "country": "USA", 
            "lat": "31.29700806", 
            "long": "-89.81282944"
        }, 
        {
            "id": 343, 
            "iata": "0R3", 
            "label": "Abbeville Chris Crusta Memorial", 
            "city": "Abbeville", 
            "state": "LA", 
            "country": "USA", 
            "lat": "29.97576083", 
            "long": "-92.08415167"
        }, 
        {
            "id": 344, 
            "iata": "BTM", 
            "label": "Bert Mooney", 
            "city": "Butte", 
            "state": "MT", 
            "country": "USA", 
            "lat": "45.95479528", 
            "long": "-112.49746"
        }, 
        {
            "id": 345, 
            "iata": "BTL", 
            "label": "W K Kellogg Regional", 
            "city": "Battle Creek", 
            "state": "MI", 
            "country": "USA", 
            "lat": "42.30727806", 
            "long": "-85.25147972"
        }, 
        {
            "id": 346, 
            "iata": "BTN", 
            "label": "Britton Municipal", 
            "city": "Britton", 
            "state": "SD", 
            "country": "USA", 
            "lat": "45.81522222", 
            "long": "-97.74313889"
        }, 
        {
            "id": 347, 
            "iata": "BTI", 
            "label": "Barter Island ", 
            "city": "Kaktovik", 
            "state": "AK", 
            "country": "USA", 
            "lat": "70.13390278", 
            "long": "-143.5770444"
        }, 
        {
            "id": 348, 
            "iata": "WYS", 
            "label": "Yellowstone", 
            "city": "West Yellowstone", 
            "state": "MT", 
            "country": "USA", 
            "lat": "44.68839917", 
            "long": "-111.1176375"
        }, 
        {
            "id": 349, 
            "iata": "4KA", 
            "label": "Tununak", 
            "city": "Tununak", 
            "state": "AK", 
            "country": "USA", 
            "lat": "60.57559667", 
            "long": "-165.2731272"
        }, 
        {
            "id": 350, 
            "iata": "H21", 
            "label": "Camdenton Memorial", 
            "city": "Camdenton", 
            "state": "MO", 
            "country": "USA", 
            "lat": "37.97468528", 
            "long": "-92.69161528"
        }, 
        {
            "id": 351, 
            "iata": "1ND3", 
            "label": "Hamry ", 
            "city": "Kindred", 
            "state": "ND", 
            "country": "USA", 
            "lat": "46.6485775", 
            "long": "-97.00564306"
        }, 
        {
            "id": 352, 
            "iata": "PEC", 
            "label": "Pelican SPB", 
            "city": "Pelican", 
            "state": "AK", 
            "country": "USA", 
            "lat": "57.95517222", 
            "long": "-136.2362733"
        }, 
        {
            "id": 353, 
            "iata": "HOE", 
            "label": "Homerville", 
            "city": "Homerville", 
            "state": "GA", 
            "country": "USA", 
            "lat": "31.05591667", 
            "long": "-82.77413889"
        }, 
        {
            "id": 354, 
            "iata": "ECG", 
            "label": "Elizabeth City CG Air Station/Municipal", 
            "city": "Elizabeth City", 
            "state": "NC", 
            "country": "USA", 
            "lat": "36.26057417", 
            "long": "-76.17459778"
        }, 
        {
            "id": 355, 
            "iata": "SEG", 
            "label": "Penn Valley", 
            "city": "Selinsgrove", 
            "state": "PA", 
            "country": "USA", 
            "lat": "40.82052917", 
            "long": "-76.86377611"
        }, 
        {
            "id": 356, 
            "iata": "RMP", 
            "label": "Rampart", 
            "city": "Rampart", 
            "state": "AK", 
            "country": "USA", 
            "lat": "65.50786222", 
            "long": "-150.1428047"
        }, 
        {
            "id": 357, 
            "iata": "06U", 
            "label": "Jackpot/Hayden ", 
            "city": "Jackpot", 
            "state": "NV", 
            "country": "USA", 
            "lat": "41.97602222", 
            "long": "-114.6580911"
        }, 
        {
            "id": 358, 
            "iata": "RMY", 
            "label": "Brooks ", 
            "city": "Marshall", 
            "state": "MI", 
            "country": "USA", 
            "lat": "42.25118111", 
            "long": "-84.9554525"
        },